,City,Country,Date,Lat,Lng,Max Temp,Humidity,Cloudiness,Wind Speed,Current Description
0,flin flon,CA,1635270917,54.7682,-101.865,39.04,93,90,8.05,mist
1,rikitea,PF,1635270596,-23.1203,-134.9692,75.11,79,100,18.75,light rain
2,atuona,PF,1635270604,-9.8,-139.0333,77.29,68,61,15.9,broken clouds
3,saint-ambroise,CA,1635270714,48.5501,-71.3324,55.94,46,100,3.44,overcast clouds
4,moron,AR,1635270917,-34.6534,-58.6198,98.02,23,14,1.01,few clouds
5,xichang,CN,1635270918,27.8964,102.2634,55.4,79,94,2.37,overcast clouds
6,jamestown,US,1635270603,42.097,-79.2353,44.19,99,90,7.0,mist
7,sibolga,ID,1635270918,1.7427,98.7792,75.92,94,100,0.72,overcast clouds
8,makushino,RU,1635270919,55.2103,67.2442,29.62,65,16,9.6,few clouds
9,zhezkazgan,KZ,1635270919,47.8043,67.7144,41.13,60,100,14.97,overcast clouds
10,yulara,AU,1635270919,-25.2406,130.9889,75.04,53,52,3.44,broken clouds
11,tiksi,RU,1635270801,71.6872,128.8694,12.15,95,100,3.15,overcast clouds
12,taoudenni,ML,1635270597,22.6783,-3.9836,92.64,14,71,4.38,broken clouds
13,avarua,CK,1635270795,-21.2078,-159.775,75.25,64,72,6.91,broken clouds
14,bluff,NZ,1635270574,-46.6,168.3333,51.39,92,100,2.84,overcast clouds
15,tasiilaq,GL,1635270920,65.6145,-37.6368,33.51,83,100,5.7,overcast clouds
16,ribeira grande,PT,1635270920,38.5167,-28.7,72.0,88,75,16.11,broken clouds
17,clyde river,CA,1635270920,70.4692,-68.5914,23.04,83,100,3.47,overcast clouds
18,evanston,US,1635270921,42.0411,-87.6901,58.33,73,72,1.01,broken clouds
19,luau,AO,1635270921,-10.7073,22.2247,67.68,90,75,3.67,light rain
20,punta arenas,CL,1635270593,-53.15,-70.9167,50.11,66,20,34.52,few clouds
21,sobolevo,RU,1635270921,54.4299,31.8996,40.69,60,100,13.31,overcast clouds
22,cape town,ZA,1635270660,-33.9258,18.4232,73.27,55,0,3.0,clear sky
23,amapa,BR,1635270922,1.0,-52.0,97.34,30,82,4.94,broken clouds
24,longyearbyen,SJ,1635270597,78.2186,15.6401,12.04,79,20,6.91,few clouds
25,esperance,AU,1635270922,-33.8667,121.9,48.04,88,81,12.88,broken clouds
26,ushuaia,AR,1635270370,-54.8,-68.3,47.86,66,40,11.5,scattered clouds
27,barrow,US,1635270301,71.2906,-156.7887,24.82,86,90,9.22,overcast clouds
28,butaritari,KI,1635270793,3.0707,172.7902,81.93,77,37,12.82,light rain
29,guilin,CN,1635270923,25.2819,110.2864,66.31,83,63,5.41,broken clouds
30,hofn,IS,1635270800,64.2539,-15.2082,41.99,93,100,30.65,moderate rain
31,codrington,AU,1635270606,-38.2667,141.9667,48.78,59,14,8.43,few clouds
32,tuensang,IN,1635270923,26.2833,94.8333,60.17,97,4,3.29,clear sky
33,vaini,TO,1635270572,-21.2,-175.2,71.76,83,20,11.5,few clouds
34,richards bay,ZA,1635270923,-28.783,32.0377,67.33,92,99,3.71,light rain
35,hasaki,JP,1635270804,35.7333,140.8333,50.4,71,2,4.03,clear sky
36,wanning,CN,1635270924,18.8003,110.3967,75.36,91,100,10.13,overcast clouds
37,nelson bay,AU,1635270924,-32.7167,152.15,62.69,94,2,9.8,clear sky
38,lakatoro,VU,1635270925,-16.0999,167.4164,78.24,85,10,5.88,clear sky
39,mosjoen,NO,1635270925,65.836,13.1908,46.67,93,75,9.22,light rain
40,georgetown,MY,1635270906,5.4112,100.3354,78.89,97,40,7.0,moderate rain
41,egvekinot,RU,1635270925,66.3167,-179.1667,-0.13,89,80,5.41,broken clouds
42,provideniya,RU,1635270608,64.3833,-173.3,14.99,81,89,5.53,overcast clouds
43,vanimo,PG,1635270779,-2.6741,141.3028,77.86,89,85,4.59,moderate rain
44,albany,US,1635270578,42.6001,-73.9662,55.58,94,100,1.01,light rain
45,thompson,CA,1635270834,55.7435,-97.8558,37.56,81,90,8.05,overcast clouds
46,mar del plata,AR,1635270909,-38.0023,-57.5575,84.22,59,0,8.01,clear sky
47,saint george,US,1635270601,37.1041,-113.5841,59.63,39,1,7.0,clear sky
48,geraldton,AU,1635270451,-28.7667,114.6,63.01,63,75,18.41,light rain
49,mataura,NZ,1635270608,-46.1927,168.8643,50.94,100,100,0.34,overcast clouds
50,puerto ayora,EC,1635270595,-0.7393,-90.3518,75.16,74,67,10.96,broken clouds
51,sur,OM,1635270926,22.5667,59.5289,80.35,73,0,9.98,clear sky
52,faanui,PF,1635270591,-16.4833,-151.75,77.67,77,78,10.11,broken clouds
53,marsa matruh,EG,1635270927,31.3525,27.2453,71.8,73,0,9.22,clear sky
54,nouadhibou,MR,1635270927,20.931,-17.0347,70.09,77,100,19.42,overcast clouds
55,hilo,US,1635270589,19.7297,-155.09,82.27,76,20,9.22,few clouds
56,hermanus,ZA,1635270599,-34.4187,19.2345,64.8,82,100,16.46,overcast clouds
57,assens,DK,1635270927,55.2702,9.9008,52.11,89,97,11.68,overcast clouds
58,mahibadhoo,MV,1635270928,3.7833,72.9667,82.18,75,100,11.7,overcast clouds
59,arraial do cabo,BR,1635270591,-22.9661,-42.0278,76.96,78,75,14.97,broken clouds
60,carnarvon,AU,1635270600,-24.8667,113.6333,64.47,55,75,11.5,broken clouds
61,bimbo,CF,1635270928,4.2567,18.4158,75.13,88,20,3.44,light rain
62,hithadhoo,MV,1635270597,-0.6,73.0833,83.82,71,43,16.62,scattered clouds
63,fereydun kenar,IR,1635270929,36.6864,52.5225,57.51,83,100,16.89,overcast clouds
64,ossora,RU,1635270929,59.2353,163.0719,19.49,86,62,5.14,broken clouds
65,kahului,US,1635270672,20.8947,-156.47,79.84,73,20,4.61,few clouds
66,wana,PK,1635270929,32.2989,69.5725,59.29,51,18,3.4,few clouds
67,pyay,MM,1635270930,18.8167,95.2167,74.55,93,40,2.28,scattered clouds
68,cabo san lucas,MX,1635270712,22.8909,-109.9124,86.61,62,0,10.13,clear sky
69,flinders,AU,1635270757,-34.5833,150.8552,60.8,89,24,3.8,few clouds
70,ponta do sol,PT,1635270605,32.6667,-17.1,72.72,63,56,3.04,broken clouds
71,kieta,PG,1635270930,-6.2167,155.6333,77.22,78,100,6.04,overcast clouds
72,muros,ES,1635270931,42.7762,-9.0603,66.7,76,22,4.12,few clouds
73,chistogorskiy,RU,1635270931,53.9835,87.3843,46.72,52,89,9.57,overcast clouds
74,malibu,US,1635270931,34.005,-118.8101,69.26,65,0,3.0,clear sky
75,pacific grove,US,1635270931,36.6177,-121.9166,62.58,77,11,1.99,few clouds
76,sharhorod,UA,1635270932,48.7383,28.085,48.9,65,1,8.03,clear sky
77,ilulissat,GL,1635270832,69.2167,-51.1,0.32,80,8,3.2,clear sky
78,svetlaya,RU,1635270932,46.5389,138.3297,46.2,59,9,4.34,clear sky
79,namibe,AO,1635270932,-15.1961,12.1522,66.92,73,15,10.22,few clouds
80,port hardy,CA,1635270933,50.6996,-127.4199,50.0,81,75,20.71,light rain
81,lampang,TH,1635270933,18.3333,99.5,71.22,95,6,0.83,clear sky
82,hobyo,SO,1635270933,5.3505,48.5268,80.96,73,4,9.62,clear sky
83,san patricio,US,1635270933,28.017,-97.5169,86.09,56,87,17.6,overcast clouds
84,mecca,SA,1635270843,21.4267,39.8261,82.29,50,16,3.09,few clouds
85,mount gambier,AU,1635270934,-37.8333,140.7667,53.51,58,9,10.36,clear sky
86,busselton,AU,1635270807,-33.65,115.3333,48.04,92,100,8.37,light rain
87,oskarshamn,SE,1635270934,57.2645,16.4484,48.79,84,51,10.49,broken clouds
88,tevaitoa,PF,1635270934,-16.7833,-151.5,77.45,77,82,6.78,broken clouds
89,kaeo,NZ,1635270935,-35.1,173.7833,62.33,94,93,2.44,overcast clouds
90,lorengau,PG,1635270935,-2.0226,147.2712,81.54,74,34,6.35,scattered clouds
91,kozhva,RU,1635270935,65.1073,57.0459,20.32,88,87,6.26,overcast clouds
92,cidreira,BR,1635270607,-30.1811,-50.2056,76.39,53,0,9.24,clear sky
93,madhogarh,IN,1635270936,26.276,79.1869,73.0,55,0,6.24,clear sky
94,gopalpur,IN,1635270936,19.2667,84.9167,76.95,81,9,7.78,clear sky
95,iralaya,HN,1635270936,15.0,-83.2333,84.29,71,66,6.69,broken clouds
96,formosa do rio preto,BR,1635270937,-11.0483,-45.1931,97.03,26,34,10.11,scattered clouds
97,qaanaaq,GL,1635270789,77.484,-69.3632,16.86,94,100,14.23,light snow
98,upernavik,GL,1635270937,72.7868,-56.1549,15.35,48,92,4.68,overcast clouds
99,mirante do paranapanema,BR,1635270937,-22.2919,-51.9064,84.13,52,90,3.83,overcast clouds
100,emporia,US,1635270938,38.4039,-96.1817,61.52,62,0,22.46,clear sky
101,aitape,PG,1635270938,-3.1374,142.3475,78.13,87,63,5.1,broken clouds
102,new norfolk,AU,1635270791,-42.7826,147.0587,44.71,77,84,2.39,broken clouds
103,east london,ZA,1635270787,-33.0153,27.9116,65.34,88,75,16.11,light rain
104,jasper,US,1635270938,37.2001,-94.3502,68.54,72,47,3.0,scattered clouds
105,bako,ET,1635270939,5.7833,36.5667,66.79,68,83,4.36,broken clouds
106,ostrovnoy,RU,1635270605,68.0531,39.5131,28.2,81,100,7.96,overcast clouds
107,mugumu,TZ,1635270939,-1.85,34.7,70.45,52,86,3.49,overcast clouds
108,guaymas,MX,1635270939,27.9333,-110.9,78.89,55,0,6.73,clear sky
109,asau,RO,1635270831,46.4333,26.4,43.75,56,0,4.68,clear sky
110,lebu,CL,1635270825,-37.6167,-73.65,57.07,73,9,17.2,clear sky
111,odweyne,SO,1635270940,9.4092,45.064,77.79,50,34,8.41,scattered clouds
112,camacha,PT,1635270590,33.0833,-16.3333,67.42,68,40,12.66,scattered clouds
113,victoria,HK,1635270599,22.2855,114.1577,78.85,85,100,5.01,light rain
114,dikson,RU,1635270940,73.5069,80.5464,13.44,85,100,10.78,overcast clouds
115,mahebourg,MU,1635270798,-20.4081,57.7,74.25,73,40,12.66,scattered clouds
116,smithers,CA,1635270941,54.7804,-127.1743,41.32,93,75,4.61,broken clouds
117,san quintin,MX,1635270792,30.4833,-115.95,66.2,53,0,20.15,clear sky
118,tazmalt,DZ,1635270941,36.3868,4.3989,64.63,73,99,6.51,overcast clouds
119,yellowknife,CA,1635270790,62.456,-114.3525,36.41,100,90,4.61,fog
120,souillac,MU,1635270582,-20.5167,57.5167,74.35,73,40,12.66,scattered clouds
121,kruisfontein,ZA,1635270941,-34.0033,24.7314,65.88,84,99,19.04,overcast clouds
122,kapaa,US,1635270794,22.0752,-159.319,75.18,99,81,10.78,broken clouds
123,rudnya,RU,1635270942,54.947,31.0934,40.42,64,100,13.13,overcast clouds
124,ieper,BE,1635270942,50.8511,2.8857,58.77,91,97,12.19,overcast clouds
125,chokurdakh,RU,1635270942,70.6333,147.9167,-17.82,100,50,3.98,scattered clouds
126,casambalangan,PH,1635270943,18.3765,122.1274,78.69,78,52,8.01,broken clouds
127,hamilton,US,1635270579,39.1834,-84.5333,57.4,61,40,3.0,scattered clouds
128,komsomolskiy,UZ,1635270943,40.4272,71.7189,53.02,46,37,2.3,scattered clouds
129,natal,BR,1635270669,-5.795,-35.2094,88.45,74,75,21.85,broken clouds
130,bud,US,1635270943,39.447,-86.1758,57.22,62,4,9.06,clear sky
131,alyangula,AU,1635270944,-13.8483,136.4192,78.67,94,4,3.44,clear sky
132,birnin kebbi,NG,1635270944,12.4539,4.1975,90.14,25,63,5.39,broken clouds
133,hanumangarh,IN,1635270944,29.5833,74.3167,72.45,35,0,3.15,clear sky
134,la ronge,CA,1635270945,55.1001,-105.2842,43.05,87,90,9.22,overcast clouds
135,caravelas,BR,1635270699,-17.7125,-39.2481,82.18,63,57,8.66,broken clouds
136,hobart,AU,1635270710,-42.8794,147.3294,45.05,90,83,3.0,broken clouds
137,tuktoyaktuk,CA,1635270613,69.4541,-133.0374,26.6,100,90,6.91,overcast clouds
138,dzhubga,RU,1635270945,44.3211,38.7039,46.31,70,2,11.01,clear sky
139,qaqortoq,GL,1635270946,60.7167,-46.0333,37.08,59,17,6.22,few clouds
140,bambous virieux,MU,1635270794,-20.3428,57.7575,74.21,73,40,12.66,scattered clouds
141,ballachulish,GB,1635270946,56.6774,-5.1308,58.89,95,100,5.01,heavy intensity rain
142,najran,SA,1635270946,17.4924,44.1277,72.25,13,5,2.04,clear sky
143,porto novo,BJ,1635270876,6.4965,2.6036,82.22,80,100,5.55,overcast clouds
144,aklavik,CA,1635270592,68.2191,-135.0107,25.63,96,100,3.47,overcast clouds
145,port alfred,ZA,1635270608,-33.5906,26.891,66.24,83,95,28.21,overcast clouds
146,luderitz,NA,1635270803,-26.6481,15.1594,60.12,89,10,2.73,clear sky
147,burnie,AU,1635270947,-41.0667,145.9167,44.94,87,52,6.02,broken clouds
148,cherrapunji,IN,1635270947,25.3,91.7,55.08,81,0,4.81,clear sky
149,sorland,NO,1635270948,67.667,12.6934,44.46,87,92,3.13,overcast clouds
150,bredasdorp,ZA,1635270591,-34.5322,20.0403,65.52,72,99,20.71,overcast clouds
151,sorgun,TR,1635270948,39.8101,35.186,39.92,69,0,5.5,clear sky
152,vestmannaeyjar,IS,1635270948,63.4427,-20.2734,45.59,76,20,34.52,moderate rain
153,sitka,US,1635270599,57.0531,-135.33,48.09,61,90,12.66,light rain
154,manta,EC,1635270654,-0.95,-80.7333,78.58,78,90,9.22,overcast clouds
155,saint-augustin,CA,1635270949,51.226,-58.6502,47.57,46,3,5.03,clear sky
156,tucuman,AR,1635270949,-26.8241,-65.2226,100.4,10,0,19.57,clear sky
157,baruun-urt,MN,1635270949,46.6806,113.2792,34.39,51,0,10.87,clear sky
158,batagay-alyta,RU,1635270949,67.8006,130.4114,4.66,89,100,3.27,overcast clouds
159,quatre cocos,MU,1635270950,-20.2078,57.7625,74.08,71,29,15.57,scattered clouds
160,kimbe,PG,1635270950,-5.5502,150.1429,74.73,91,89,3.96,overcast clouds
161,cherskiy,RU,1635270951,68.75,161.3,-18.17,100,97,4.43,overcast clouds
162,mareeba,AU,1635270951,-17.0,145.4333,72.32,95,61,3.22,broken clouds
163,orchard homes,US,1635270951,46.8633,-114.0484,50.27,87,82,3.0,broken clouds
164,itaperucu,BR,1635270951,-25.22,-49.3478,76.42,43,77,3.36,broken clouds
165,mackenzie,CA,1635270952,55.2999,-123.1698,41.22,100,90,9.22,overcast clouds
166,tautira,PF,1635270952,-17.7333,-149.15,80.62,79,93,5.59,light rain
167,krasnoselkup,RU,1635270952,65.7,82.4667,23.99,96,100,14.79,light snow
168,pimentel,PE,1635270953,-6.8367,-79.9342,70.09,64,0,18.41,clear sky
169,alpena,US,1635270953,45.0617,-83.4327,46.54,76,94,11.01,overcast clouds
170,igarka,RU,1635270953,67.4667,86.5833,20.17,84,100,11.95,overcast clouds
171,nizhniy kuranakh,RU,1635270953,58.8353,125.4869,27.01,91,100,3.76,overcast clouds
172,goderich,CA,1635270881,43.7501,-81.7165,46.9,76,100,16.11,overcast clouds
173,stryn,NO,1635270598,61.9045,6.7226,50.31,95,100,9.13,overcast clouds
174,izvestkovyy,RU,1635270954,48.9833,131.55,36.99,89,80,3.56,broken clouds
175,galesong,ID,1635270954,-5.3166,119.3661,75.22,81,100,3.13,overcast clouds
176,sagua la grande,CU,1635270954,22.8067,-80.0756,89.56,55,55,4.05,broken clouds
177,tefe,BR,1635270955,-3.3542,-64.7114,84.31,79,40,4.61,scattered clouds
178,hudson bay,CA,1635270955,52.85,-102.3842,46.36,59,98,9.22,overcast clouds
179,lagoa,PT,1635270808,39.05,-27.9833,69.73,86,100,25.55,overcast clouds
180,ravar,IR,1635270955,31.2656,56.8055,60.8,24,0,4.14,clear sky
181,stephenville,US,1635270956,32.2207,-98.2023,82.76,68,40,17.27,scattered clouds
182,guerrero negro,MX,1635270882,27.9769,-114.0611,69.33,57,67,23.26,broken clouds
183,xacmaz,AZ,1635270956,41.4635,48.806,46.4,79,100,7.31,overcast clouds
184,salalah,OM,1635270956,17.0151,54.0924,78.49,67,6,1.43,clear sky
185,kaitangata,NZ,1635270601,-46.2817,169.8464,51.12,98,100,2.28,overcast clouds
186,castro,BR,1635270835,-24.7911,-50.0119,74.91,45,75,2.55,broken clouds
187,itarema,BR,1635270957,-2.9248,-39.9167,86.43,57,0,19.77,clear sky
188,lompoc,US,1635270799,34.6391,-120.4579,68.56,70,1,3.44,clear sky
189,galatas,GR,1635270957,37.4962,23.4489,59.65,65,23,16.6,few clouds
190,shakiso,ET,1635270957,5.75,38.9167,60.12,90,62,3.15,light rain
191,lavrentiya,RU,1635270958,65.5833,-171.0,12.36,78,80,7.43,broken clouds
192,talnakh,RU,1635270958,69.4865,88.3972,14.5,95,98,6.26,overcast clouds
193,zhuhai,CN,1635270958,22.2769,113.5678,78.58,88,20,4.61,light rain
194,grindavik,IS,1635270802,63.8424,-22.4338,41.47,87,90,16.11,heavy intensity rain
195,bukachacha,RU,1635270959,52.9833,116.9167,34.63,68,0,7.92,clear sky
196,broken hill,AU,1635270959,-31.95,141.4333,56.91,19,2,8.05,clear sky
197,kamenka,RU,1635270959,51.3223,42.7678,35.13,55,97,7.85,overcast clouds
198,alofi,NU,1635270960,-19.0595,-169.9187,73.29,88,42,6.91,scattered clouds
199,acheng,CN,1635270960,45.5454,126.977,39.13,69,0,3.71,clear sky
200,meulaboh,ID,1635270960,4.1363,96.1285,76.42,88,98,4.0,overcast clouds
201,sioux lookout,CA,1635270824,50.1001,-91.917,43.18,81,75,12.66,broken clouds
202,rundu,NA,1635270961,-17.9333,19.7667,81.77,34,58,4.9,broken clouds
203,skjervoy,NO,1635270961,70.0311,20.9714,35.78,71,20,22.66,few clouds
204,nanortalik,GL,1635270322,60.1432,-45.2371,37.11,70,82,3.49,broken clouds
205,phatthalung,TH,1635270962,7.5,100.0833,78.67,87,69,3.8,moderate rain
206,marawi,PH,1635270963,7.9986,124.2928,69.66,94,91,0.83,light rain
207,wuwei,CN,1635270963,37.9281,102.6414,40.84,79,98,5.53,overcast clouds
208,dangriga,BZ,1635270964,16.9692,-88.2321,89.56,73,85,7.76,overcast clouds
209,kudahuvadhoo,MV,1635270923,2.6708,72.8944,81.64,78,92,14.41,overcast clouds
210,kirakira,SB,1635270964,-10.4544,161.9205,78.93,86,87,4.29,overcast clouds
211,imeni poliny osipenko,RU,1635270925,52.4201,136.4853,32.14,93,99,2.3,overcast clouds
212,fortuna,US,1635270964,40.5982,-124.1573,57.65,70,90,5.01,overcast clouds
213,touros,BR,1635270965,-5.1989,-35.4608,88.7,60,10,17.36,clear sky
214,saldanha,ZA,1635270965,-33.0117,17.9442,78.85,55,77,12.71,broken clouds
215,rio gallegos,AR,1635270700,-51.6226,-69.2181,62.65,23,40,40.29,scattered clouds
216,tual,ID,1635270797,-5.6667,132.75,83.44,75,53,8.48,broken clouds
217,kupang,ID,1635270966,-10.1667,123.5833,80.01,73,66,2.55,broken clouds
218,olafsvik,IS,1635270824,64.8945,-23.7142,42.03,77,100,26.89,overcast clouds
219,sychevka,RU,1635270966,55.8252,34.2736,38.12,68,100,13.58,overcast clouds
220,rovinj,HR,1635270966,45.08,13.64,55.29,85,100,5.99,overcast clouds
221,constitucion,CL,1635270967,-35.3333,-72.4167,64.35,65,16,17.38,few clouds
222,karachi,PK,1635270691,24.9056,67.0822,76.82,50,0,0.0,haze
223,ancud,CL,1635270798,-41.8697,-73.8203,57.42,81,100,10.94,overcast clouds
224,egyek,HU,1635270967,47.6333,20.9,44.82,49,93,4.81,overcast clouds
225,kamen-rybolov,RU,1635270967,44.7481,132.0403,48.33,90,100,7.02,light rain
226,coahuayana,MX,1635270968,18.7333,-103.6833,87.96,61,86,4.14,overcast clouds
227,luleburgaz,TR,1635270968,41.4039,27.3592,51.17,77,42,10.74,scattered clouds
228,bulungu,CD,1635270968,-4.55,18.6,76.87,76,61,2.8,broken clouds
229,havoysund,NO,1635270969,70.9963,24.6622,32.88,65,76,29.73,broken clouds
230,morehead,US,1635270969,37.2711,-87.1764,58.14,60,40,3.0,scattered clouds
231,herne bay,GB,1635270969,51.373,1.1286,61.54,85,98,1.99,overcast clouds
232,khatanga,RU,1635270969,71.9667,102.5,2.86,97,100,3.87,overcast clouds
233,antofagasta,CL,1635270970,-23.65,-70.4,65.48,60,0,8.9,clear sky
234,manoel urbano,BR,1635270970,-8.8389,-69.2597,84.18,60,95,4.25,moderate rain
235,menongue,AO,1635270970,-14.6585,17.691,68.32,73,96,9.08,light rain
236,gao,ML,1635270971,16.6362,1.637,92.8,10,5,9.15,clear sky
237,tolaga bay,NZ,1635270971,-38.3667,178.3,58.87,90,92,4.45,overcast clouds
238,kaiu,EE,1635270972,59.0129,25.0551,46.18,95,100,8.81,overcast clouds
239,kununurra,AU,1635270972,-15.7667,128.7333,82.38,69,13,8.05,few clouds
240,nsawam,GH,1635270972,5.8089,-0.3503,77.05,86,100,7.38,light rain
241,sovetskiy,RU,1635270973,61.3614,63.5842,24.8,63,1,7.0,clear sky
242,sakakah,SA,1635270973,29.9697,40.2064,80.17,23,0,10.69,clear sky
243,arlit,NE,1635270973,18.7369,7.3853,90.97,10,0,6.53,clear sky
244,garmsar,IR,1635270973,35.2182,52.3409,60.06,44,6,9.8,clear sky
245,amga,RU,1635270974,60.8953,131.9608,30.6,94,100,1.59,overcast clouds
246,mantua,IT,1635270974,45.1667,10.7833,57.49,76,77,4.56,broken clouds
247,moses lake,US,1635270875,47.1301,-119.2781,52.29,57,65,15.55,broken clouds
248,sunbury,AU,1635270974,-37.5833,144.7333,49.59,90,0,3.0,clear sky
249,kavieng,PG,1635270794,-2.5744,150.7967,81.46,76,91,5.41,overcast clouds
250,saint anthony,US,1635270975,45.0205,-93.218,54.66,56,99,7.0,overcast clouds
251,mayo,US,1635270975,38.8876,-76.5119,66.4,66,50,18.01,scattered clouds
252,tacna,PE,1635270975,-18.0056,-70.2483,66.4,52,0,8.05,clear sky
253,mao,ES,1635270976,39.8885,4.2658,63.16,72,20,9.22,few clouds
254,naze,JP,1635270976,28.3667,129.4833,66.99,62,36,4.97,scattered clouds
255,araouane,ML,1635270977,18.9048,-3.5265,92.64,14,52,6.49,broken clouds
256,port hedland,AU,1635270977,-20.3167,118.5667,73.45,83,0,9.22,clear sky
257,nuuk,GL,1635270978,64.1835,-51.7216,31.87,47,0,13.0,clear sky
258,raudeberg,NO,1635270978,61.9875,5.1352,49.19,81,100,5.99,overcast clouds
259,kaka,TM,1635270978,37.3482,59.6143,59.09,54,97,4.83,overcast clouds
260,benavente,ES,1635270811,42.0025,-5.6783,55.98,49,62,3.29,broken clouds
261,iqaluit,CA,1635270855,63.7506,-68.5145,31.73,80,40,15.01,scattered clouds
262,klaksvik,FO,1635270797,62.2266,-6.589,52.72,96,100,27.76,overcast clouds
263,kita,ML,1635270979,13.0349,-9.4895,86.07,53,52,1.99,light rain
264,kodiak,US,1635270596,57.79,-152.4072,39.27,78,100,10.85,overcast clouds
265,chuy,UY,1635270980,-33.6971,-53.4616,83.01,44,0,11.97,clear sky
266,saint-joseph,RE,1635270980,-21.3667,55.6167,71.98,78,37,11.36,scattered clouds
267,waitati,NZ,1635270981,-45.75,170.5667,53.11,98,100,3.58,overcast clouds
268,airai,TL,1635270981,-8.9266,125.4092,62.51,86,11,0.94,few clouds
269,viseu,PT,1635270981,40.661,-7.9097,62.85,57,14,5.68,few clouds
270,xining,CN,1635270982,36.6167,101.7667,32.65,86,51,1.63,broken clouds
271,garowe,SO,1635270982,8.4054,48.4845,79.2,62,6,17.13,clear sky
272,sarishabari,BD,1635270982,24.7333,89.8333,75.47,79,0,7.25,clear sky
273,mitu,CO,1635270983,1.1983,-70.1733,84.22,72,95,1.81,overcast clouds
274,brae,GB,1635270983,60.3964,-1.353,51.71,95,100,24.29,overcast clouds
275,ballina,AU,1635270984,-28.8667,153.5667,67.96,92,90,2.3,overcast clouds
276,bathsheba,BB,1635270984,13.2167,-59.5167,88.41,62,40,18.41,scattered clouds
277,nemuro,JP,1635270969,43.3236,145.575,53.83,73,100,10.76,overcast clouds
278,olinda,BR,1635270984,-8.0089,-34.8553,80.33,74,75,10.36,broken clouds
279,chinsali,ZM,1635270985,-10.5414,32.0816,81.48,25,71,10.13,broken clouds
280,wanlaweyn,SO,1635270985,2.6185,44.8938,81.14,69,77,16.91,broken clouds
281,villanueva de la serena,ES,1635270985,38.9766,-5.7974,68.83,33,0,3.51,clear sky
282,manadhoo,MV,1635270986,5.7667,73.3833,81.52,77,83,12.46,broken clouds
283,puerto penasco,MX,1635270979,31.3167,-113.5333,70.92,38,8,7.0,clear sky
284,nikolskoye,RU,1635270796,59.7035,30.7861,45.88,88,100,7.76,overcast clouds
285,ambilobe,MG,1635270986,-13.2,49.05,75.76,68,25,5.68,scattered clouds
286,zhanaozen,KZ,1635270987,43.3,52.8,42.19,57,92,12.37,overcast clouds
287,nyurba,RU,1635270987,63.2842,118.3319,20.84,85,46,7.74,scattered clouds
288,dunedin,NZ,1635270857,-45.8742,170.5036,52.47,97,100,5.84,overcast clouds
289,sao filipe,CV,1635270987,14.8961,-24.4956,80.42,75,89,10.36,overcast clouds
290,akdepe,TM,1635270988,42.0551,59.3788,50.09,60,100,11.27,overcast clouds
291,bethel,US,1635270988,41.3712,-73.414,62.91,93,100,1.01,light rain
292,mehamn,NO,1635270988,71.0357,27.8492,33.71,67,99,24.83,light snow
293,teya,RU,1635270988,60.3778,92.6267,41.49,78,100,14.5,overcast clouds
294,derzhavinsk,KZ,1635270989,51.1,66.3167,31.77,51,45,6.44,scattered clouds
295,mandalgovi,MN,1635270824,45.7625,106.2708,37.0,41,0,8.25,clear sky
296,yamada,JP,1635270989,39.4667,141.95,49.48,82,5,5.48,clear sky
297,acquaviva,SM,1635270989,43.9459,12.4185,53.78,71,40,3.44,scattered clouds
298,saint-philippe,RE,1635270795,-21.3585,55.7679,72.99,79,42,12.59,scattered clouds
299,narsaq,GL,1635270826,60.9167,-46.05,35.2,61,39,4.74,scattered clouds
300,banff,CA,1635270990,51.1762,-115.5698,48.92,45,90,8.05,overcast clouds
301,port elizabeth,ZA,1635270503,-33.918,25.5701,68.09,88,40,17.27,scattered clouds
302,westport,US,1635270990,41.1415,-73.3579,64.36,95,90,1.01,light rain
303,baykit,RU,1635270990,61.67,96.37,26.01,95,100,11.56,snow
304,kabalo,CD,1635270991,-6.05,26.9167,75.47,73,91,3.27,overcast clouds
305,visby,SE,1635270991,57.6409,18.296,50.86,93,0,12.66,clear sky
306,goma,CD,1635270991,-1.6792,29.2228,65.23,81,99,4.29,overcast clouds
307,calama,CL,1635270992,-22.4667,-68.9333,72.09,13,0,25.32,clear sky
308,moyale,KE,1635270992,3.5167,39.0584,71.65,64,43,5.08,scattered clouds
309,pevek,RU,1635270789,69.7008,170.3133,11.48,95,100,11.56,light snow
310,katsuura,JP,1635270823,35.1333,140.3,60.91,73,71,5.57,broken clouds
311,severo-kurilsk,RU,1635270798,50.6789,156.125,43.86,85,78,5.68,broken clouds
312,sola,VU,1635270792,-13.8833,167.55,80.31,79,53,8.61,broken clouds
313,nokaneng,BW,1635270993,-19.6667,22.2667,77.97,44,58,5.37,broken clouds
314,cap malheureux,MU,1635270792,-19.9842,57.6142,74.46,68,5,8.01,clear sky
315,leningradskiy,RU,1635270993,69.3833,178.4167,9.28,94,100,22.26,light snow
316,tsuyama,JP,1635270993,35.05,134.0,53.35,92,84,2.44,broken clouds
317,lhokseumawe,ID,1635270993,5.1801,97.1507,78.73,86,91,4.32,overcast clouds
318,atasu,KZ,1635270994,48.6814,71.6433,39.07,92,100,13.02,overcast clouds
319,lucapa,AO,1635270994,-8.4192,20.7447,70.36,86,92,3.47,light rain
320,sao joao do piaui,BR,1635270994,-8.3581,-42.2467,99.18,23,11,12.15,few clouds
321,bol,TD,1635270995,13.4586,14.7147,87.44,37,32,9.89,scattered clouds
322,kailua,US,1635270995,21.4022,-157.7394,79.07,71,20,4.61,few clouds
323,kendrapara,IN,1635270995,20.5042,86.416,77.41,84,15,5.37,few clouds
324,mandya,IN,1635270995,12.5242,76.8958,71.65,86,95,3.69,overcast clouds
325,matara,LK,1635270996,5.9485,80.5353,77.67,87,100,5.46,heavy intensity rain
326,togur,RU,1635270979,58.3631,82.8265,30.81,82,100,23.31,overcast clouds
327,poum,NC,1635270996,-20.2333,164.0167,73.89,75,91,5.17,overcast clouds
328,kangaatsiaq,GL,1635270700,68.3065,-53.4641,18.25,76,38,9.35,scattered clouds
329,hambantota,LK,1635270996,6.1241,81.1185,76.48,89,100,7.31,overcast clouds
330,iranshahr,IR,1635270997,27.2025,60.6848,77.34,27,0,4.61,clear sky
331,rosario oeste,BR,1635270997,-14.8361,-56.4275,94.35,40,66,3.04,broken clouds
332,potoru,SL,1635270997,7.5072,-11.4786,77.16,90,98,3.83,light rain
333,saskylakh,RU,1635270998,71.9167,114.0833,1.2,98,100,1.25,overcast clouds
334,dudinka,RU,1635270998,69.4058,86.1778,10.96,96,87,5.68,overcast clouds
335,kaura namoda,NG,1635270998,12.5898,6.5779,88.63,21,55,7.56,broken clouds
336,santa cruz de la palma,ES,1635270998,28.6835,-17.7642,73.54,60,40,16.11,scattered clouds
337,nicholasville,US,1635270999,37.8806,-84.573,56.55,57,55,9.93,broken clouds
338,melfi,IT,1635270999,40.9965,15.6514,57.49,76,100,3.85,overcast clouds
339,svetlogorsk,BY,1635270999,52.6333,29.7333,42.64,52,75,10.31,broken clouds
340,avera,US,1635271000,33.194,-82.5271,70.45,42,0,8.52,clear sky
341,oxford,GB,1635270996,51.7522,-1.256,60.4,90,75,1.01,broken clouds
342,comodoro rivadavia,AR,1635270959,-45.8667,-67.5,75.06,23,0,31.07,clear sky
343,okhotsk,RU,1635271000,59.3833,143.3,21.87,85,100,6.49,overcast clouds
344,yaan,NG,1635271000,7.3833,8.5667,77.41,86,56,5.26,broken clouds
345,kuttigen,CH,1635271001,47.4167,8.05,53.76,91,48,1.32,scattered clouds
346,krasnyy chikoy,RU,1635271001,50.3643,108.7512,31.03,78,0,3.13,clear sky
347,tulun,RU,1635271001,54.5611,100.5792,41.32,60,92,9.93,overcast clouds
348,tambovka,RU,1635271002,50.0969,128.0489,30.31,78,34,5.93,scattered clouds
349,waipawa,NZ,1635271002,-41.4122,175.5153,56.44,86,100,8.39,overcast clouds
350,sabang,ID,1635271002,5.8933,95.3214,81.88,74,60,11.65,heavy intensity rain
351,dingle,PH,1635271003,10.9995,122.6711,75.72,93,81,6.6,broken clouds
352,anloga,GH,1635271003,5.7947,0.8973,80.82,78,100,11.27,overcast clouds
353,sambava,MG,1635270952,-14.2667,50.1667,74.57,80,6,14.16,clear sky
354,san jose de las lajas,CU,1635271003,22.9614,-82.1511,86.23,57,77,5.39,broken clouds
355,jaumave,MX,1635271004,23.4167,-99.3833,77.95,41,39,4.45,scattered clouds
356,cukai,MY,1635271004,4.25,103.4167,78.75,89,84,3.15,broken clouds
357,englehart,CA,1635271004,47.8169,-79.8664,41.56,75,90,19.57,overcast clouds
358,roma,US,1635271004,43.2128,-75.4557,54.95,95,90,3.44,moderate rain
359,yar-sale,RU,1635271005,66.8333,70.8333,15.53,91,51,5.75,broken clouds
360,lakhdenpokhya,RU,1635271005,61.5198,30.1992,44.82,94,100,11.3,overcast clouds
361,toora-khem,RU,1635271005,52.4675,96.11,32.14,66,69,2.3,broken clouds
362,port lincoln,AU,1635271006,-34.7333,135.8667,72.93,33,46,18.5,scattered clouds
363,teluknaga,ID,1635271006,-6.0989,106.6381,82.63,88,20,8.01,haze
364,poronaysk,RU,1635271006,49.2167,143.1167,38.07,78,0,3.11,clear sky
365,norman wells,CA,1635270800,65.282,-126.8329,28.44,86,90,0.0,overcast clouds
366,lerwick,GB,1635271007,60.1545,-1.1494,51.8,95,100,26.37,overcast clouds
367,birin,NP,1635271007,26.8865,88.0718,53.58,86,0,5.08,clear sky
368,kushima,JP,1635271007,31.4583,131.2333,56.12,85,88,4.38,overcast clouds
369,luanda,AO,1635271006,-8.8368,13.2343,77.0,78,40,11.5,scattered clouds
370,hokitika,NZ,1635271008,-42.7167,170.9667,55.96,93,100,2.19,overcast clouds
371,cascais,PT,1635270962,38.6979,-9.4215,72.75,49,0,3.0,clear sky
372,tigil,RU,1635270805,57.8,158.6667,31.23,99,100,1.92,snow
373,do gonbadan,IR,1635271008,30.3586,50.7981,69.89,23,0,0.0,clear sky
374,mola di bari,IT,1635271009,41.0609,17.0873,63.91,68,69,3.91,broken clouds
375,oranjemund,NA,1635271009,-28.55,16.4333,62.35,85,5,7.47,clear sky
376,pustoshka,RU,1635271009,56.3355,29.369,40.64,78,100,9.01,overcast clouds
377,san carlos,VE,1635270870,9.6612,-68.5827,86.7,60,92,4.23,overcast clouds
378,miguel auza,MX,1635271010,24.2933,-103.4503,73.02,36,32,14.72,scattered clouds
379,ahipara,NZ,1635270826,-35.1667,173.1667,60.96,94,97,5.41,overcast clouds
380,baykalsk,RU,1635271010,51.5058,104.1469,41.32,71,3,8.03,clear sky
381,buala,SB,1635270593,-8.145,159.5921,80.29,83,100,7.7,overcast clouds
382,greensboro,US,1635270767,36.0726,-79.792,68.05,57,20,21.85,few clouds
383,koslan,RU,1635271010,63.4564,48.8989,26.89,85,95,6.8,overcast clouds
384,tukrah,LY,1635271011,32.5341,20.5791,72.7,68,4,5.37,clear sky
385,stockach,DE,1635271011,47.85,9.0167,53.2,91,48,0.47,scattered clouds
386,isla vista,US,1635270953,34.4133,-119.861,69.78,58,0,1.01,clear sky
387,empoli,IT,1635271011,43.7175,10.9414,59.52,69,84,1.01,broken clouds
388,salta,AR,1635271012,-24.7859,-65.4117,88.57,13,20,11.01,few clouds
389,montrose,US,1635271012,38.4166,-108.2673,42.21,89,89,15.88,snow
390,pangoa,PE,1635271012,-12.1167,-73.0,83.53,53,86,3.44,overcast clouds
391,elk city,US,1635271013,35.412,-99.4043,77.22,69,90,21.85,overcast clouds
392,paamiut,GL,1635271013,61.994,-49.6678,36.39,54,0,9.95,clear sky
393,san cristobal,VE,1635270827,7.7669,-72.225,77.18,52,98,7.14,overcast clouds
394,port blair,IN,1635270609,11.6667,92.75,80.69,82,73,6.8,broken clouds
395,lake city,US,1635271013,30.1897,-82.6393,84.92,41,1,13.8,clear sky
396,bengkulu,ID,1635270303,-3.8004,102.2655,76.03,90,100,5.23,overcast clouds
397,nome,US,1635271014,64.5011,-165.4064,18.43,85,83,5.06,broken clouds
398,tecoanapa,MX,1635271014,16.5167,-98.75,84.31,72,44,7.4,scattered clouds
399,celestun,MX,1635271014,20.8667,-90.4,88.84,60,100,4.23,overcast clouds
400,anadyr,RU,1635271015,64.75,177.4833,-1.7,84,0,6.71,clear sky
401,biak,ID,1635271015,-0.9131,122.8766,76.91,84,87,0.98,overcast clouds
402,northam,GB,1635271015,51.0333,-4.2167,59.67,90,85,17.49,overcast clouds
403,fairbanks,US,1635271016,64.8378,-147.7164,29.1,95,90,0.0,mist
404,beyneu,KZ,1635271016,45.3167,55.2,42.85,54,15,9.26,few clouds
405,bara,NG,1635271016,10.3744,10.7288,85.57,49,47,3.51,scattered clouds
406,vila velha,BR,1635271016,-20.3297,-40.2925,78.75,78,75,11.5,broken clouds
407,vao,NC,1635270608,-22.6667,167.4833,71.98,85,100,13.35,overcast clouds
408,epe,NG,1635271017,6.5841,3.9834,78.69,86,68,4.88,broken clouds
409,waw,SS,1635271017,7.7029,27.9953,73.45,78,94,5.03,light rain
410,christchurch,NZ,1635270729,-43.5333,172.6333,55.02,92,75,1.01,mist
411,lovozero,RU,1635271017,68.005,35.0117,25.66,95,100,13.71,light snow
412,ust-nera,RU,1635271018,64.5667,143.2,6.49,98,98,2.93,overcast clouds
413,shestakovo,RU,1635271018,56.4915,103.96,32.0,93,83,3.94,broken clouds
414,okha,RU,1635271018,53.5739,142.9478,35.91,88,96,6.24,overcast clouds
415,cabra,ES,1635271019,37.4725,-4.4421,69.24,48,83,3.4,broken clouds
416,bilibino,RU,1635271019,68.0546,166.4372,-14.78,100,100,0.92,overcast clouds
417,black river,JM,1635271019,18.0264,-77.8487,86.99,61,83,7.29,broken clouds
418,aksu,CN,1635271020,41.1231,80.2644,51.3,36,100,2.64,overcast clouds
419,jishou,CN,1635271020,28.3167,109.7167,54.88,84,57,2.21,broken clouds
420,esso,RU,1635271020,55.9333,158.7,22.15,97,82,4.92,broken clouds
421,halifax,CA,1635271021,44.6453,-63.5724,56.34,79,90,5.99,overcast clouds
422,escanaba,US,1635271021,45.7453,-87.0646,49.96,66,88,3.0,overcast clouds
423,belaya gora,RU,1635271022,68.5333,146.4167,-9.27,100,80,2.39,broken clouds
424,beringovskiy,RU,1635270807,63.05,179.3167,9.41,98,100,24.4,light snow
425,katherine,AU,1635271023,-14.4667,132.2667,84.52,65,12,5.75,few clouds
426,canto do buriti,BR,1635271023,-8.11,-42.9444,99.03,22,5,8.61,clear sky
427,cockburn town,TC,1635270926,21.4612,-71.1419,85.96,66,20,11.5,few clouds
428,te anau,NZ,1635270595,-45.4167,167.7167,49.46,94,98,0.45,overcast clouds
429,atherton,GB,1635270809,53.5237,-2.4935,61.29,78,99,1.99,overcast clouds
430,mildura,AU,1635271023,-34.2,142.15,57.16,30,1,6.91,clear sky
431,sivaki,RU,1635271024,52.6333,126.75,33.37,85,74,4.41,broken clouds
432,dhidhdhoo,MV,1635271024,6.8833,73.1,81.93,75,91,11.43,overcast clouds
433,boa vista,BR,1635270988,2.8197,-60.6733,78.78,78,75,1.14,light rain
434,concepcion del uruguay,AR,1635271025,-32.4825,-58.2372,97.99,24,0,1.01,clear sky
435,rocha,UY,1635270788,-34.4833,-54.3333,84.47,47,0,12.95,clear sky
436,noumea,NC,1635271025,-22.2763,166.4572,73.99,99,100,5.37,overcast clouds
437,turukhansk,RU,1635271025,65.8167,87.9833,21.63,80,100,21.0,overcast clouds
438,arona,ES,1635271025,28.0996,-16.681,70.11,65,75,21.85,broken clouds
439,amazar,RU,1635271026,53.858,120.875,30.56,84,80,3.06,broken clouds
440,kyzyl-suu,KG,1635270747,42.3414,78.0056,40.71,49,100,5.77,overcast clouds
441,makakilo city,US,1635271009,21.3469,-158.0858,77.61,69,6,12.03,clear sky
442,komatipoort,ZA,1635271026,-25.4332,31.9548,70.05,85,63,5.55,broken clouds
443,deputatskiy,RU,1635271027,69.3,139.9,-5.37,99,99,0.74,overcast clouds
444,merauke,ID,1635271027,-8.4667,140.3333,78.31,86,100,11.36,overcast clouds
445,bantry,IE,1635271027,51.6833,-9.45,62.55,93,99,19.48,overcast clouds
446,santa rosa,PH,1635271028,14.3122,121.1114,80.11,88,100,7.14,overcast clouds
447,atar,MR,1635271028,20.5169,-13.0499,94.64,19,80,14.0,broken clouds
448,eureka,US,1635271028,40.8021,-124.1637,57.92,77,100,8.01,overcast clouds
449,parrita,CR,1635270946,9.5201,-84.3225,94.77,72,80,6.69,broken clouds
450,marzuq,YE,1635271029,14.4,46.4667,72.75,57,4,4.43,clear sky
451,abu dhabi,AE,1635270736,24.4667,54.3667,86.11,48,0,9.22,clear sky
452,henties bay,NA,1635271029,-22.116,14.2845,61.86,84,58,7.45,broken clouds
453,hualmay,PE,1635270934,-11.0964,-77.6139,69.12,68,69,10.2,broken clouds
454,singapore,SG,1635271026,1.2897,103.8501,80.55,88,75,2.3,broken clouds
455,vung tau,VN,1635271030,10.346,107.0843,77.0,86,100,8.93,moderate rain
456,saint-denis,FR,1635271030,48.9167,2.3333,58.1,81,0,1.01,clear sky
457,sao joao da barra,BR,1635271031,-21.6403,-41.0511,80.69,94,100,5.23,overcast clouds
458,cururupu,BR,1635271031,-1.8283,-44.8683,88.0,53,67,8.37,broken clouds
459,tuatapere,NZ,1635271031,-46.1333,167.6833,52.75,97,99,2.17,overcast clouds
460,lady frere,ZA,1635271031,-31.7031,27.2329,58.86,83,56,7.61,broken clouds
461,kurilsk,RU,1635271032,45.2333,147.8833,49.37,85,100,5.88,moderate rain
462,bonthe,SL,1635271032,7.5264,-12.505,79.3,79,89,6.24,overcast clouds
463,severodvinsk,RU,1635271032,64.5635,39.8302,28.51,98,100,9.08,snow
464,berlevag,NO,1635270797,70.8578,29.0864,33.75,69,75,29.93,light shower snow
465,mogadishu,SO,1635270778,2.0371,45.3438,80.19,83,22,13.65,few clouds
466,myitkyina,MM,1635271033,25.3833,97.4,68.02,87,0,1.48,clear sky
467,verkhnevilyuysk,RU,1635271033,63.4453,120.3167,23.47,91,89,8.55,overcast clouds
468,kabinda,CD,1635271033,-6.1333,24.4833,69.35,92,84,4.25,moderate rain
469,bonavista,CA,1635271034,48.6499,-53.1147,45.12,71,61,12.75,broken clouds
470,tabou,CI,1635271034,4.423,-7.3528,78.1,85,97,7.05,overcast clouds
471,chapaevsk,RU,1635271035,52.9813,49.7112,34.81,60,50,11.27,scattered clouds
472,cabedelo,BR,1635271035,-6.9811,-34.8339,77.67,63,9,16.42,clear sky
473,columbus,US,1635271020,39.9612,-82.9988,55.47,64,40,7.0,scattered clouds
474,izhma,RU,1635271035,65.0083,53.9113,17.62,96,19,3.33,few clouds
475,choma,ZM,1635271036,-16.8065,26.9531,75.45,35,21,4.81,few clouds
476,gizo,SB,1635271036,-8.103,156.8419,81.09,74,83,6.26,broken clouds
477,mokhotlong,LS,1635271036,-29.2894,29.0675,56.21,67,40,8.16,scattered clouds
478,simao,CN,1635271037,22.7886,100.9748,59.86,99,21,1.9,light rain
479,ischia,IT,1635271037,40.7342,13.9471,66.38,69,100,8.3,overcast clouds
480,kiama,AU,1635271037,-34.6833,150.8667,61.0,88,48,3.13,scattered clouds
481,la rochelle,FR,1635271037,46.1667,-1.15,56.88,86,93,2.35,overcast clouds
482,aberdeen,GB,1635271038,57.1437,-2.0981,59.49,91,40,17.27,scattered clouds
483,aswan,EG,1635271038,24.0934,32.907,88.9,25,0,10.36,clear sky
484,merritt,CA,1635271038,50.1123,-120.7942,47.44,76,93,7.61,overcast clouds
485,bandarbeyla,SO,1635270831,9.4942,50.8122,78.55,77,3,7.9,clear sky
486,sabha,LY,1635271039,27.0377,14.4283,75.34,21,3,8.3,clear sky
487,wanxian,CN,1635271039,30.8039,108.3897,60.12,91,100,1.99,overcast clouds
488,high level,CA,1635271039,58.5169,-117.136,35.71,100,90,3.44,fog
489,magalia,US,1635271040,39.8121,-121.5783,52.14,86,91,3.0,overcast clouds
490,rosarito,MX,1635271040,32.3333,-117.0333,66.78,60,57,5.79,broken clouds
491,pochutla,MX,1635271040,15.7432,-96.4661,91.81,55,20,6.15,few clouds
492,chicama,PE,1635270803,-7.8447,-79.1469,61.34,57,57,10.33,broken clouds
493,buraydah,SA,1635271040,26.326,43.975,84.65,18,1,9.71,clear sky
494,srednekolymsk,RU,1635271041,67.45,153.6833,-9.8,100,59,2.75,broken clouds
495,lichinga,MZ,1635271041,-13.3128,35.2406,73.49,56,20,10.36,few clouds
496,samfya,ZM,1635271041,-11.3649,29.5565,83.79,31,57,5.14,broken clouds
497,sinnamary,GF,1635271042,5.3833,-52.95,82.15,82,79,9.8,broken clouds
498,cap-aux-meules,CA,1635271042,47.3821,-61.8597,51.85,66,75,8.05,broken clouds
499,uarini,BR,1635271042,-2.99,-65.1083,84.15,59,96,3.76,overcast clouds
500,langarud,IR,1635271043,37.197,50.1535,55.38,91,100,6.98,overcast clouds
501,mount isa,AU,1635270729,-20.7333,139.5,71.37,56,76,0.0,broken clouds
502,nizwa,OM,1635271043,22.9333,57.5333,82.72,31,17,5.37,few clouds
503,half moon bay,US,1635270954,37.4636,-122.4286,63.21,78,75,1.99,mist
504,kargasok,RU,1635270798,59.0556,80.8572,27.88,87,100,25.75,light snow
505,bairiki,KI,1635271043,1.3292,172.9752,80.6,83,20,1.14,few clouds
506,torbay,CA,1635270609,47.6666,-52.7314,44.58,74,90,11.5,overcast clouds
507,shar,KZ,1635271044,49.5886,81.0453,46.58,50,30,9.98,scattered clouds
508,khandyga,RU,1635271044,62.6667,135.6,25.81,98,100,2.24,overcast clouds
509,morant bay,JM,1635271045,17.8815,-76.4093,86.63,64,88,9.42,overcast clouds
510,nioro,GM,1635271045,13.35,-15.75,88.92,58,61,2.06,broken clouds
511,port arthur,CN,1635271045,38.8,121.2667,59.92,75,0,16.96,light rain
512,andenes,NO,1635271046,69.3143,16.1194,35.58,87,75,17.27,broken clouds
513,ternate,ID,1635271046,0.8,127.4,80.94,79,99,3.42,overcast clouds
514,biskamzha,RU,1635271046,53.4497,89.5272,37.87,85,88,5.73,overcast clouds
515,estevan,CA,1635271047,49.1334,-102.9842,46.74,93,90,9.22,mist
516,saint-leu,RE,1635271047,-21.15,55.2833,72.46,76,19,3.78,few clouds
517,santiago de cuba,CU,1635271047,20.0247,-75.8219,86.52,78,48,4.76,scattered clouds
518,qinhuangdao,CN,1635271048,39.9317,119.5883,51.48,39,0,6.85,clear sky
519,phek,IN,1635271048,25.6667,94.5,54.05,96,69,1.59,broken clouds
520,puerto del rosario,ES,1635270827,28.5004,-13.8627,73.15,68,20,19.57,few clouds
521,moshupa,BW,1635271048,-24.7782,25.4155,79.21,51,3,13.04,clear sky
522,les cayes,HT,1635271048,18.2,-73.75,86.81,55,82,11.41,broken clouds
523,tecuala,MX,1635271049,22.3986,-105.4569,87.06,58,30,4.32,scattered clouds
524,hwange,ZW,1635271049,-18.3693,26.5019,85.55,35,28,3.67,scattered clouds
525,castro verde,PT,1635271050,37.6983,-8.0858,74.62,34,0,4.61,clear sky
526,kalemie,CD,1635271050,-5.9475,29.1947,76.84,64,75,2.15,broken clouds
527,storforshei,NO,1635271050,66.4043,14.5233,40.66,100,75,2.3,fog
528,otavi,NA,1635271051,-19.65,17.3333,83.89,14,54,5.39,broken clouds
529,ishigaki,JP,1635271051,24.3448,124.1572,77.31,61,89,13.71,overcast clouds
530,surt,LY,1635270852,31.2089,16.5887,74.75,63,12,7.9,few clouds
531,gazipur,BD,1635271052,23.9981,90.423,80.56,74,40,0.0,haze
532,tabas,IR,1635271052,33.5959,56.9244,64.13,20,0,2.77,clear sky
533,adrar,MR,1635271052,20.5022,-10.0711,91.35,15,66,8.28,broken clouds
534,mackay,AU,1635270805,-21.15,149.2,73.04,94,75,0.0,broken clouds
535,dehloran,IR,1635271053,32.6941,47.2679,72.25,16,0,2.04,clear sky
536,thanh hoa,VN,1635271053,19.8,105.7667,67.71,86,17,4.45,few clouds
